[
  {
    "name": "Ventnor Beach",
    "latitude": 50.5929377,
    "longitude": -1.2078721
  },
  {
    "name": "Shanklin Beach",
    "latitude": 50.6310399,
    "longitude": -1.1710122
  },
  {
    "name": "Bembridge Beach",
    "latitude": 50.6937591,
    "longitude": -1.081596
  },
  {
    "name": "Sandown Beach",
    "latitude": 50.6523481,
    "longitude": -1.1551154
  },
  {
    "name": "Compton Beach",
    "latitude": 50.6552778,
    "longitude": -1.4663889
  },
  {
    "name": "Small Hope Beach",
    "latitude": 50.63487199999999,
    "longitude": -1.1698237
  },
  {
    "name": "Alum Bay Pebble Beach",
    "latitude": 50.6681949,
    "longitude": -1.5690172
  },
  {
    "name": "Ryde Beach",
    "latitude": 50.7315677,
    "longitude": -1.1496139
  },
  {
    "name": "Yaverland Beach",
    "latitude": 50.661865,
    "longitude": -1.1339944
  },
  {
    "name": "Harbour Beach",
    "latitude": 50.7319113,
    "longitude": -1.1529297
  },
  {
    "name": "Thorness Bay Beach",
    "latitude": 50.7401455,
    "longitude": -1.3520433
  },
  {
    "name": "Woodside Beach",
    "latitude": 50.7396021,
    "longitude": -1.2221221
  },
  {
    "name": "Shanklin Beach",
    "latitude": 50.6283149,
    "longitude": -1.1728199
  },
  {
    "name": "Ryde West Sands",
    "latitude": 50.7332717,
    "longitude": -1.1624673
  },
  {
    "name": "Shanklin Beach",
    "latitude": 50.6256995,
    "longitude": -1.1735486
  },
  {
    "name": "Rocken End Beach",
    "latitude": 50.5814099,
    "longitude": -1.3097221
  },
  {
    "name": "Priory Beach",
    "latitude": 50.7103756,
    "longitude": -1.102464
  },
  {
    "name": "Appley Beach",
    "latitude": 50.7269753,
    "longitude": -1.1381869
  },
  {
    "name": "Gurnard Bay",
    "latitude": 50.7623481,
    "longitude": -1.3235992
  },
  {
    "name": "Sandown Beach",
    "latitude": 50.65643559999999,
    "longitude": -1.1474007
  },
  {
    "name": "Monks Bay",
    "latitude": 50.5989199,
    "longitude": -1.1820686
  },
  {
    "name": "Totland Bay",
    "latitude": 50.68107209999999,
    "longitude": -1.5516324
  },
  {
    "name": "Watershoot Bay",
    "latitude": 50.5758764,
    "longitude": -1.305829
  },
  {
    "name": "Alum Bay",
    "latitude": 50.6639012,
    "longitude": -1.5834581
  },
  {
    "name": "Horseshoe Bay",
    "latitude": 50.5963287,
    "longitude": -1.1858314
  },
  {
    "name": "Orchard Bay",
    "latitude": 50.5863161,
    "longitude": -1.2306707
  },
  {
    "name": "Binnel Bay",
    "latitude": 50.578841,
    "longitude": -1.2689845
  },
  {
    "name": "Horseshoe Bay, Isle of Wight",
    "latitude": 50.6654693,
    "longitude": -1.0967221
  },
  {
    "name": "Chale Bay",
    "latitude": 50.5940013,
    "longitude": -1.335768
  },
  {
    "name": "Brighstone Bay",
    "latitude": 50.6221368,
    "longitude": -1.3876943
  },
  {
    "name": "Luccombe Bay",
    "latitude": 50.6105731,
    "longitude": -1.1733404
  },
  {
    "name": "Ventnor Bay",
    "latitude": 50.59183969999999,
    "longitude": -1.2080507
  },
  {
    "name": "Reeth Bay",
    "latitude": 50.5765184,
    "longitude": -1.2846019
  },
  {
    "name": "Whitecliff Bay",
    "latitude": 50.6702826,
    "longitude": -1.0936703
  },
  {
    "name": "Priory Bay",
    "latitude": 50.7089448,
    "longitude": -1.0997663
  },
  {
    "name": "Brook Bay",
    "latitude": 50.64945340000001,
    "longitude": -1.4594596
  },
  {
    "name": "Newtown Bay",
    "latitude": 50.7269267,
    "longitude": -1.4139673
  },
  {
    "name": "Osborne Bay",
    "latitude": 50.7576793,
    "longitude": -1.250981
  }
]